[
  {
    "name": "Aparcamiento Motos Mercado",
    "address": "Plaza del Mercado, Logroño",
    "lat": 42.4667,
    "lon": -2.4444
  },
  {
    "name": "Aparcamiento Motos Portales",
    "address": "Calle Portales 48, Logroño",
    "lat": 42.4664,
    "lon": -2.4457
  },
  {
    "name": "Aparcamiento Motos Espolón",
    "address": "Paseo del Espolón, Logroño",
    "lat": 42.4644,
    "lon": -2.4466
  },
  {
    "name": "Aparcamiento Motos La Paz",
    "address": "Avenida de la Paz 65, Logroño",
    "lat": 42.4625,
    "lon": -2.4379
  },
  {
    "name": "Aparcamiento Motos San Miguel",
    "address": "Parque San Miguel, Logroño",
    "lat": 42.4700,
    "lon": -2.4368
  },
  {
    "name": "Aparcamiento Motos Universidad",
    "address": "Universidad de La Rioja, Logroño",
    "lat": 42.4709,
    "lon": -2.4451
  },
  {
    "name": "Aparcamiento Motos San Agustín",
    "address": "Calle San Agustín 12, Logroño",
    "lat": 42.4663,
    "lon": -2.4481
  },
  {
    "name": "Aparcamiento Motos Huesca",
    "address": "Calle Huesca 12, Logroño",
    "lat": 42.4641,
    "lon": -2.4367
  },
  {
    "name": "Aparcamiento Motos Estación Bus",
    "address": "Estación de Autobuses, Logroño",
    "lat": 42.4605,
    "lon": -2.4514
  },
  {
    "name": "Aparcamiento Motos Burgos",
    "address": "Avenida de Burgos 104, Logroño",
    "lat": 42.4667,
    "lon": -2.4579
  }
]
